city,country,lon,lat,temp,feels_like,temp_min,temp_max,pressure,humidity,sea_level,grnd_level,visibility,wind_speed,wind_deg,wind_gust,clouds,weather_main,weather_description,weather_icon,timezone
Moscow,RU,37.6156,55.7522,19.08,18.92,17.97,19.08,1007,72,1007,988,10000.0,3.89,74,8.06,100,Rain,moderate rain,10d,10800
Saint Petersburg,RU,30.2642,59.8944,16.14,16.26,16.14,16.14,1003,94,1003,1002,10000.0,2.21,167,4.68,60,Clouds,broken clouds,04d,10800
Novosibirsk,RU,82.9344,55.0411,20.99,21.13,20.99,20.99,1007,76,1007,988,10000.0,5.57,185,8.06,69,Clouds,broken clouds,04d,25200
Yekaterinburg,RU,60.6125,56.8575,17.39,17.43,17.39,17.39,1004,86,1004,971,10000.0,3.41,325,8.26,6,Clear,clear sky,01d,18000
Kazan,RU,49.1221,55.7887,18.1,18.03,18.1,18.1,1007,79,1007,994,10000.0,3.24,326,5.31,0,Clear,clear sky,01d,10800
Vladimir,RU,40.3966,56.1366,16.15,15.81,16.15,16.15,1007,76,1007,991,10000.0,2.14,75,3.89,79,Clouds,broken clouds,04d,10800
Nizhny Novgorod,RU,44.002,56.3287,17.63,17.25,17.63,17.63,1008,69,1008,998,10000.0,1.18,43,1.49,5,Clear,clear sky,01d,10800
Samara,RU,50.0,53.0,20.23,20.27,20.23,20.23,1007,75,1007,998,10000.0,3.36,226,6.94,17,Clouds,few clouds,02d,14400
Omsk,RU,73.4,55.0,19.57,19.57,19.57,19.57,1000,76,1000,989,10000.0,5.47,195,7.76,37,Clouds,scattered clouds,03d,21600
Krasnoyarsk,RU,92.7917,56.0097,26.64,26.64,26.64,26.64,1007,51,1007,980,10000.0,3.47,109,5.76,100,Clouds,overcast clouds,04d,25200
Rostov-on-Don,RU,39.7139,47.2364,24.14,24.05,24.14,24.14,1005,55,1005,1000,10000.0,2.35,160,5.22,100,Clouds,overcast clouds,04d,10800
Ufa,RU,56.0375,54.775,18.9,18.86,18.9,18.9,1007,77,1007,993,10000.0,1.91,236,3.17,70,Clouds,broken clouds,04d,18000
Volgograd,RU,44.5018,48.7194,24.02,23.6,24.02,24.02,1007,43,1007,1000,10000.0,1.21,160,2.86,84,Clouds,broken clouds,04d,10800
Perm,RU,56.2855,58.0174,18.42,18.22,18.42,18.42,1005,73,1005,987,10000.0,0.79,210,1.12,99,Clouds,overcast clouds,04d,18000
Voronezh,RU,39.17,51.6664,21.49,21.84,21.49,21.49,1005,82,1005,990,10000.0,1.83,161,3.6,71,Clouds,broken clouds,04d,10800
Krasnodar,RU,40.0,45.0,19.1,19.52,19.1,19.1,1008,94,1008,998,10000.0,2.38,170,3.74,44,Rain,light rain,10d,10800
Saratov,RU,46.0333,51.5667,23.19,23.05,23.19,23.19,1008,57,1008,1000,10000.0,0.79,249,0.93,0,Clear,clear sky,01d,14400
Tyumen,RU,65.5272,57.1522,16.98,17.11,16.98,16.98,1000,91,1000,990,10000.0,4.11,356,7.22,93,Rain,light rain,10d,18000
Tolyatti,RU,49.3461,53.5303,19.11,19.19,19.11,19.11,1007,81,1007,1000,10000.0,1.81,211,1.63,53,Clouds,broken clouds,04d,14400
Izhevsk,RU,53.2333,56.85,20.63,20.89,20.63,20.63,1005,82,1005,989,10000.0,2.61,233,3.95,62,Clouds,broken clouds,04d,14400
London,GB,-0.1257,51.5085,16.48,16.22,14.95,17.23,1027,78,1027,1023,10000.0,4.02,313,5.81,0,Clear,clear sky,01n,3600
Paris,FR,2.3488,48.8534,15.25,14.66,13.93,15.7,1028,70,1028,1019,10000.0,1.42,358,2.19,0,Clear,clear sky,01n,7200
Berlin,DE,13.4105,52.5244,12.59,11.89,11.12,12.87,1022,76,1022,1017,10000.0,4.03,275,10.52,44,Clouds,scattered clouds,03d,7200
Madrid,ES,-3.7026,40.4165,23.73,23.39,21.62,24.4,1022,47,1022,949,10000.0,2.24,80,4.92,0,Clear,clear sky,01n,7200
Rome,US,-85.1647,34.257,21.94,22.67,21.6,22.78,1019,95,1019,992,10000.0,0.89,337,2.24,100,Clouds,overcast clouds,04n,-14400
Amsterdam,NL,4.8897,52.374,16.21,15.66,14.93,17.14,1025,68,1025,1025,10000.0,4.02,190,5.81,80,Clouds,broken clouds,04n,7200
Brussels,BE,4.3488,50.8504,11.05,10.56,9.9,12.11,1027,90,1027,1020,10000.0,3.24,221,5.19,7,Clear,clear sky,01n,7200
Vienna,AT,16.3721,48.2085,15.64,14.96,12.64,16.65,1024,65,1024,997,10000.0,0.89,310,2.24,7,Clear,clear sky,01n,7200
Prague,CZ,14.4208,50.088,13.18,12.46,11.92,13.75,1024,73,1024,990,10000.0,1.34,228,3.13,6,Clear,clear sky,01n,7200
Warsaw,PL,21.0118,52.2298,15.2,14.47,14.91,15.51,1016,65,1016,1005,10000.0,5.54,272,11.31,22,Clouds,few clouds,02d,7200
Budapest,HU,19.0399,47.498,17.21,16.32,16.55,17.79,1021,51,1021,1000,10000.0,1.79,323,4.02,13,Clouds,few clouds,02d,7200
Lisbon,PT,-9.1333,38.7167,23.21,22.94,23.21,24.24,1019,52,1019,1011,10000.0,0.89,323,0.9,6,Clear,clear sky,01n,3600
Stockholm,SE,18.0649,59.3326,14.65,14.6,14.03,15.03,1007,93,1007,1003,10000.0,0.89,270,2.68,99,Clouds,overcast clouds,04d,7200
Oslo,NO,10.7461,59.9127,10.52,9.22,10.52,10.52,1015,61,1015,990,10000.0,1.08,327,0.9,75,Clouds,broken clouds,04d,7200
Copenhagen,DK,12.5655,55.6759,13.41,12.95,13.41,13.41,1017,82,1017,1015,10000.0,7.75,290,12.24,67,Clouds,broken clouds,04d,7200
Helsinki,FI,24.9355,60.1695,14.2,14.26,13.31,14.93,1003,99,1003,1001,10000.0,1.79,6,3.13,10,Clear,clear sky,01d,10800
Athens,GR,23.7162,37.9795,27.24,28.47,26.17,28.33,1011,61,1011,988,10000.0,3.13,27,5.81,0,Clear,clear sky,01n,10800
Dublin,US,-121.9358,37.7021,20.55,20.33,16.29,21.77,1014,64,1014,989,10000.0,2.08,260,2.52,0,Clear,clear sky,01d,-25200
Zurich,CH,8.55,47.3667,14.26,13.67,13.8,14.91,1027,74,1027,969,10000.0,0.62,169,0.59,4,Clear,clear sky,01n,7200
Barcelona,ES,2.159,41.3888,24.76,24.57,22.86,25.39,1022,49,1022,1015,10000.0,0.89,290,1.79,0,Clear,clear sky,01n,7200
Beijing,CN,116.3972,39.9075,35.16,36.09,35.16,35.16,998,35,998,993,10000.0,3.52,199,4.35,98,Clouds,overcast clouds,04d,28800
Shanghai,CN,121.4581,31.2222,30.06,35.18,30.06,30.06,1008,70,1008,1008,10000.0,1.47,202,3.08,100,Clouds,overcast clouds,04d,28800
Shenzhen,CN,114.0683,22.5455,31.34,38.34,29.65,31.59,1010,80,1010,1002,10000.0,6.61,155,10.93,100,Clouds,overcast clouds,04d,28800
Guangzhou,CN,113.25,23.1167,29.29,34.21,29.29,29.29,1009,74,1009,1009,6283.0,6.27,155,9.31,100,Clouds,overcast clouds,04d,28800
Harbin,CN,126.65,45.75,28.7,29.87,28.7,28.7,999,55,999,984,10000.0,3.21,209,4.2,40,Clouds,scattered clouds,03d,28800
Tokyo,JP,139.6917,35.6895,27.19,28.82,25.37,27.69,1012,66,1012,1010,10000.0,1.34,158,2.68,100,Clouds,overcast clouds,04d,32400
Seoul,KR,126.9778,37.5683,26.88,28.28,26.88,26.88,1008,65,1008,999,10000.0,2.57,244,3.23,99,Clouds,overcast clouds,04d,32400
Bangkok,TH,100.5167,13.75,27.73,32.15,25.51,27.73,1008,85,1008,1008,10000.0,4.99,217,8.71,100,Clouds,overcast clouds,04d,25200
Singapore,SG,103.8501,1.2897,31.07,38.07,31.07,31.07,1011,75,1011,1011,10000.0,3.99,166,4.35,95,Clouds,overcast clouds,04d,28800
Hong Kong,HK,114.1577,22.2855,29.16,34.09,29.16,30.74,1010,75,1010,1005,10000.0,6.26,135,8.94,95,Clouds,overcast clouds,04d,28800
Taipei,TW,121.5319,25.0478,33.84,40.84,33.84,33.84,1010,58,1010,992,10000.0,1.79,310,4.92,16,Clouds,few clouds,02d,28800
Kuala Lumpur,MY,101.6865,3.1431,31.67,38.67,31.35,31.81,1011,77,1011,999,10000.0,1.44,163,2.27,100,Clouds,overcast clouds,04d,28800
Jakarta,ID,106.8451,-6.2146,31.78,34.44,31.28,32.39,1012,52,1012,1009,10000.0,3.58,111,4.47,3,Clear,clear sky,01d,25200
Manila,PH,120.9822,14.6042,32.4,39.4,31.74,33.95,1012,74,1012,1014,10000.0,2.68,305,13.41,5,Clear,clear sky,01d,28800
Hanoi,VN,105.8412,21.0245,31.76,37.11,31.76,31.76,1002,62,1002,1001,10000.0,5.63,4,7.5,96,Clouds,overcast clouds,04d,25200
New York,US,-74.006,40.7143,25.68,26.18,23.9,27.34,1013,72,1013,1012,10000.0,1.34,293,3.58,74,Clouds,broken clouds,04n,-14400
Los Angeles,US,-118.2437,34.0522,19.88,19.91,17.78,22.58,1016,76,1016,997,10000.0,1.81,207,1.93,80,Clouds,broken clouds,04n,-25200
Chicago,US,-87.65,41.85,22.34,23.03,21.69,23.34,1015,92,1015,993,10000.0,1.34,246,1.34,98,Rain,moderate rain,10n,-18000
Houston,US,-95.3633,29.7633,29.44,35.27,27.78,30.03,1016,77,1016,1013,10000.0,2.24,208,5.36,13,Clouds,few clouds,02n,-18000
Phoenix,US,-112.074,33.4484,35.69,32.95,34.08,36.98,1009,10,1009,967,10000.0,1.34,259,4.47,100,Clouds,overcast clouds,04n,-25200
Toronto,CA,-79.4163,43.7001,25.3,25.92,23.61,26.25,1013,78,1013,998,10000.0,1.34,304,3.03,11,Clouds,few clouds,02n,-14400
Vancouver,CA,-123.1193,49.2497,17.84,17.69,16.79,18.47,1017,77,1017,1009,10000.0,2.24,170,,100,Clouds,overcast clouds,04d,-25200
Montreal,CA,-73.5878,45.5088,23.7,24.16,22.36,23.97,1009,78,1009,1006,10000.0,3.15,255,9.3,3,Clear,clear sky,01n,-14400
Calgary,CA,-114.0853,51.0501,14.12,13.49,13.76,14.12,1012,73,1012,887,10000.0,1.47,143,1.46,4,Clear,clear sky,01n,-21600
Ottawa,CA,-75.6981,45.4112,23.09,23.8,22.29,23.19,1011,90,1011,1000,10000.0,2.46,275,3.51,20,Clouds,few clouds,02n,-14400
Sao Paulo,BR,-46.6361,-23.5475,16.43,16.48,15.81,18.58,1022,90,1022,931,10000.0,1.34,98,2.24,100,Clouds,overcast clouds,04n,-10800
Rio de Janeiro,BR,-43.2075,-22.9028,26.44,26.44,26.44,26.44,1020,86,1020,1022,10000.0,1.9,272,2.55,97,Clouds,overcast clouds,04n,-10800
Buenos Aires,AR,-58.3772,-34.6132,4.34,2.95,3.28,4.91,1029,78,1029,1028,10000.0,1.69,77,2.28,2,Clear,clear sky,01n,-10800
Lima,PE,-77.0282,-12.0432,20.5,20.8,20.5,20.5,1014,84,1014,987,10000.0,2.45,191,1.93,51,Clouds,broken clouds,04n,-18000
Bogota,CO,-74.0817,4.6097,9.49,9.21,8.98,9.82,1020,80,1020,739,10000.0,1.37,136,2.34,100,Clouds,overcast clouds,04n,-18000
Santiago,CL,-70.6483,-33.4569,7.15,7.15,7.14,8.19,1019,76,1019,931,10000.0,0.69,229,0.37,0,Clear,clear sky,01n,-14400
Caracas,VE,-66.8792,10.488,22.6,23.0,22.6,22.6,1016,80,1016,898,10000.0,0.89,32,1.34,100,Clouds,overcast clouds,04n,-14400
Quito,EC,-78.5249,-0.2299,11.65,10.72,11.65,11.65,1018,71,1018,725,10000.0,1.26,100,1.61,100,Clouds,overcast clouds,04n,-18000
Montevideo,UY,-56.1674,-34.8335,8.18,7.32,8.18,8.18,1029,83,1029,1026,10000.0,1.74,201,1.94,97,Clouds,overcast clouds,04n,-10800
La Paz,BO,-68.15,-16.5,3.16,3.16,3.16,3.16,1023,94,1023,622,10000.0,0.61,256,1.27,5,Clear,clear sky,01n,-14400
Cairo,EG,31.2497,30.0626,25.23,25.85,25.23,25.23,1012,78,1012,1005,10000.0,2.28,325,2.87,0,Clear,clear sky,01d,10800
Lagos,NG,3.75,6.5833,23.36,24.26,23.36,23.36,1015,96,1015,1015,10000.0,0.57,231,0.63,74,Clouds,broken clouds,04n,3600
Nairobi,KE,36.8167,-1.2833,15.43,15.27,15.43,15.43,1020,86,1020,840,10000.0,0.68,68,0.91,77,Clouds,broken clouds,04d,10800
Johannesburg,ZA,28.0436,-26.2023,6.14,5.43,6.14,6.14,1026,20,1026,831,10000.0,1.36,336,1.51,0,Clear,clear sky,01n,7200
Cape Town,ZA,18.4232,-33.9258,12.36,11.66,10.75,13.82,1022,77,1022,1021,10000.0,2.24,312,4.02,95,Clouds,overcast clouds,04n,7200
Casablanca,MA,-7.6192,33.5928,25.74,26.17,25.74,25.74,1014,69,1014,1006,10000.0,0.45,8,0.75,61,Clouds,broken clouds,04n,3600
Addis Ababa,ET,38.7469,9.025,17.99,17.41,17.99,17.99,1018,60,1018,774,10000.0,1.15,134,1.8,97,Clouds,overcast clouds,04d,10800
Dar es Salaam,TZ,39.2695,-6.8235,22.7,23.06,22.7,22.7,1020,78,1020,1017,10000.0,2.54,198,4.03,19,Clouds,few clouds,02d,10800
Accra,GH,-0.1969,5.556,24.69,25.46,24.69,24.69,1015,86,1015,1011,10000.0,4.49,218,6.27,99,Clouds,overcast clouds,04n,0
Tunis,TN,9.0,34.0,26.49,26.49,26.49,26.49,1019,51,1019,1008,10000.0,3.85,80,5.79,0,Clear,clear sky,01d,3600
Sydney,AU,151.2073,-33.8679,19.29,18.55,17.41,20.21,1024,49,1024,1019,10000.0,0.45,194,3.13,0,Clear,clear sky,01d,36000
Melbourne,US,-80.6081,28.0836,25.71,26.43,24.46,27.77,1017,80,1017,1016,10000.0,2.96,146,3.77,41,Clouds,scattered clouds,03n,-14400
Brisbane,AU,153.0281,-27.4679,20.79,20.36,20.01,21.77,1023,55,1023,1017,10000.0,2.24,132,3.13,25,Clouds,scattered clouds,03d,36000
Auckland,NZ,174.7667,-36.8667,14.04,13.07,13.64,14.6,1017,60,1017,1014,10000.0,4.02,45,6.26,56,Clouds,broken clouds,04d,43200
Wellington,NZ,174.7756,-41.2866,11.08,10.2,9.95,12.59,1013,75,1013,1001,10000.0,9.39,342,16.09,77,Clouds,broken clouds,04d,43200
Dubai,AE,55.3047,25.2582,34.19,41.19,34.19,34.19,1000,61,1000,999,10000.0,2.58,25,2.52,0,Clear,clear sky,01d,14400
Doha,QA,51.5333,25.2867,35.47,34.35,35.47,35.47,1001,25,1001,999,10000.0,2.07,330,2.39,0,Clear,clear sky,01d,10800
Riyadh,SA,46.7219,24.6877,36.38,33.48,36.38,36.38,1005,8,1005,935,10000.0,3.0,326,3.22,0,Clear,clear sky,01d,10800
Abu Dhabi,AE,54.3667,24.4667,32.01,37.1,32.01,32.01,1001,60,1001,1001,10000.0,1.17,291,0.85,0,Clear,clear sky,01d,14400
Muscat,OM,58.5922,23.6139,32.1,38.93,32.1,32.1,1001,65,1001,991,10000.0,1.5,3,0.88,6,Clear,clear sky,01d,14400
Istanbul,TR,28.9833,41.0351,25.09,26.19,25.09,26.11,1011,97,1011,1004,9685.0,4.5,343,7.75,31,Clouds,scattered clouds,03d,10800
Ankara,TR,32.8543,39.9199,20.11,19.72,17.91,20.11,1011,59,1011,892,10000.0,2.24,297,2.68,0,Clear,clear sky,01d,10800
Tehran,IR,51.4215,35.6944,28.73,27.16,28.73,28.73,1006,14,1006,859,10000.0,1.79,230,,3,Clear,clear sky,01d,12600
Baghdad,IQ,44.4009,33.3406,36.17,35.08,36.17,36.17,1001,24,1001,997,10000.0,5.57,332,7.06,0,Clear,clear sky,01d,10800
Amman,JO,35.945,31.9552,22.0,22.08,22.0,22.0,1010,70,1010,920,10000.0,6.56,276,8.75,0,Clear,clear sky,01d,10800
Mumbai,IN,72.8479,19.0144,26.91,30.38,26.91,26.91,1004,89,1004,1004,3944.0,11.52,267,13.99,100,Rain,moderate rain,10d,19800
Delhi,IN,77.2167,28.6667,34.98,39.14,34.98,34.98,999,46,999,974,10000.0,1.38,113,1.82,96,Clouds,overcast clouds,04d,19800
Bangalore,IN,77.6033,12.9762,23.0,23.44,20.62,23.05,1011,80,1011,914,10000.0,7.59,258,14.66,100,Clouds,overcast clouds,04d,19800
Chennai,IN,80.2785,13.0878,30.54,35.59,30.0,30.54,1007,67,1007,1007,10000.0,0.89,180,1.34,100,Clouds,overcast clouds,04d,19800
Kolkata,IN,88.3697,22.5697,33.3,39.92,33.3,33.3,997,59,997,997,10000.0,7.92,95,10.27,100,Clouds,overcast clouds,04d,19800
Islamabad,PK,73.1338,33.7104,34.35,41.35,34.35,34.35,1001,60,1001,922,10000.0,1.99,200,1.38,0,Clear,clear sky,01d,18000
Lahore,PK,74.3436,31.5497,38.71,41.89,38.71,38.71,999,33,999,975,10000.0,3.16,120,2.78,0,Clear,clear sky,01d,18000
Dhaka,BD,90.4074,23.7104,35.01,41.5,35.01,35.01,999,52,999,998,10000.0,5.12,98,6.36,94,Clouds,overcast clouds,04d,21600
Colombo,LK,79.8478,6.9319,29.46,34.86,29.46,29.46,1011,75,1011,1012,10000.0,7.83,255,10.29,100,Clouds,overcast clouds,04d,19800
Kathmandu,NP,85.3167,27.7167,26.89,28.67,26.89,26.89,1003,70,1003,845,8615.0,1.95,275,1.92,94,Clouds,overcast clouds,04d,20700
Murmansk,RU,34.0,68.0,13.98,13.21,13.98,13.98,1011,68,1011,980,10000.0,0.5,80,0.78,100,Clouds,overcast clouds,04n,10800
Arkhangelsk,RU,40.5433,64.5401,11.23,10.84,11.23,11.23,1007,93,1007,1006,10000.0,3.5,17,11.59,100,Clouds,overcast clouds,04d,10800
Sochi,RU,39.7303,43.6,23.66,24.22,23.66,23.66,1009,82,1009,993,10000.0,3.33,133,4.94,58,Clouds,broken clouds,04d,10800
Vladivostok,RU,131.8735,43.1056,16.27,16.54,16.27,16.27,1006,99,1006,1004,,7.08,151,11.55,100,Clouds,overcast clouds,04d,36000
Irkutsk,RU,104.2964,52.2978,28.99,28.12,28.99,28.99,1007,34,1007,960,10000.0,5.03,325,6.67,50,Clouds,scattered clouds,03d,28800
Yakutsk,RU,129.7331,62.0339,30.22,28.45,30.22,30.22,1004,21,1004,994,10000.0,2.32,202,2.73,49,Clouds,scattered clouds,03d,32400
Petropavlovsk-Kamchatsky,RU,158.6483,53.0452,10.52,9.93,10.52,10.52,1016,88,1016,999,10000.0,1.07,359,4.21,100,Rain,light rain,10d,43200
Kaliningrad,RU,20.511,54.7065,16.07,16.11,16.07,16.07,1011,91,1011,1008,10000.0,6.23,286,10.87,89,Clouds,overcast clouds,04d,7200
Smolensk,RU,33.0,55.0,16.85,16.71,16.85,16.85,1007,81,1007,984,10000.0,3.25,306,5.13,100,Clouds,overcast clouds,04d,10800
Tver,RU,35.8931,56.8619,18.61,18.54,18.61,18.61,1006,77,1006,989,10000.0,2.58,213,5.28,100,Clouds,overcast clouds,04d,10800
Munich,DE,11.5755,48.1374,13.32,12.8,12.96,14.4,1027,80,1027,964,10000.0,0.89,318,0.89,49,Clouds,scattered clouds,03d,7200
Hamburg,DE,10.0,53.55,12.71,12.49,12.67,13.49,1023,94,1023,1020,10000.0,4.09,251,10.55,100,Clouds,overcast clouds,04d,7200
Milan,IT,9.1895,45.4643,24.34,24.45,22.47,24.95,1020,62,1020,1007,10000.0,1.85,99,3.7,55,Clouds,broken clouds,04d,7200
Naples,IT,14.25,40.8333,24.06,23.62,22.91,24.58,1017,42,1017,1014,10000.0,3.78,35,7.32,0,Clear,clear sky,01d,7200
Valencia,ES,-0.8333,39.3333,20.97,20.64,20.97,20.97,1023,58,1023,965,10000.0,0.92,289,1.04,0,Clear,clear sky,01d,7200
Seville,ES,-5.9761,37.3824,25.76,25.57,25.04,26.11,1020,45,1020,1016,10000.0,2.24,46,4.47,0,Clear,clear sky,01d,7200
Porto,PT,-8.611,41.1496,24.04,23.62,24.04,24.04,1019,43,1019,1011,10000.0,3.67,98,7.08,0,Clear,clear sky,01d,3600
Lyon,FR,4.5833,45.75,14.72,13.89,14.72,17.23,1027,63,1027,966,10000.0,1.12,305,1.96,0,Clear,clear sky,01d,7200
Marseille,FR,5.5,43.3333,25.29,24.87,25.29,25.29,1019,38,1019,1000,10000.0,2.56,13,3.53,0,Clear,clear sky,01d,7200
Geneva,US,-88.3054,41.8875,20.85,21.31,19.95,21.76,1015,89,1015,987,10000.0,1.34,360,3.58,93,Clouds,overcast clouds,04n,-18000
Osaka,JP,135.5022,34.6937,23.53,24.08,23.53,23.53,1009,82,1009,1005,10000.0,0.51,35,1.15,100,Rain,moderate rain,10d,32400
Nagoya,JP,136.9064,35.1815,24.97,25.61,24.97,24.97,1010,80,1010,1011,10000.0,4.71,171,7.55,100,Rain,heavy intensity rain,10d,32400
Busan,KR,129.0403,35.1028,23.63,23.95,23.63,23.63,1007,73,1007,1003,10000.0,2.01,233,2.55,100,Clouds,overcast clouds,04d,32400
Incheon,KR,126.4161,37.45,21.05,21.8,21.05,21.05,1007,99,1007,1006,10000.0,3.26,238,4.6,82,Clouds,broken clouds,04d,32400
Chiang Mai,TH,99.0,18.75,32.74,39.74,32.74,32.74,1004,67,1004,962,10000.0,1.95,184,2.5,100,Clouds,overcast clouds,04d,25200
Phuket,TH,98.25,8.0,31.72,38.72,31.72,31.72,1011,79,1011,1008,9946.0,5.77,255,7.34,85,Clouds,overcast clouds,04d,25200
Siem Reap,KH,104.0,13.5,24.78,25.87,24.78,24.78,1009,98,1009,1001,756.0,5.24,215,11.81,100,Clouds,overcast clouds,04d,25200
Vientiane,LA,102.6,17.9667,27.76,31.23,27.76,27.76,1005,78,1005,983,10000.0,2.48,227,4.38,100,Clouds,overcast clouds,04d,25200
Yangon,MM,96.1561,16.8053,25.3,26.24,25.3,25.3,1007,90,1007,1006,10000.0,3.6,212,9.87,100,Clouds,overcast clouds,04d,23400
Ulaanbaatar,MN,106.8832,47.9077,21.73,21.26,21.73,21.73,1007,50,1007,845,10000.0,7.41,350,8.18,99,Clouds,overcast clouds,04d,28800
San Francisco,US,-122.4194,37.7749,12.82,12.35,11.67,15.31,1016,84,1016,1012,10000.0,4.47,360,7.6,13,Clouds,few clouds,02n,-25200
San Diego,US,-117.1573,32.7153,18.45,18.6,17.56,19.51,1017,86,1017,1013,10000.0,1.79,301,3.58,85,Clouds,overcast clouds,04n,-25200
Dallas,US,-96.7836,32.7668,29.33,33.06,27.89,30.82,1014,68,1014,996,10000.0,1.34,55,3.13,23,Clouds,few clouds,02n,-18000
Miami,US,-80.1937,25.7743,25.82,26.73,25.0,27.22,1017,87,1017,1016,10000.0,2.1,177,3.18,100,Rain,light rain,10n,-14400
Boston,US,-71.0598,42.3584,28.13,30.13,26.19,28.94,1010,64,1010,1006,10000.0,0.89,277,3.58,53,Clouds,broken clouds,04n,-14400
Philadelphia,US,-75.1638,39.9523,25.74,26.38,23.94,27.3,1014,77,1014,1009,10000.0,1.91,269,4.78,35,Clouds,scattered clouds,03n,-14400
Atlanta,US,-84.388,33.749,22.49,23.17,21.48,22.86,1017,91,1017,983,10000.0,0.35,18,0.74,47,Clouds,scattered clouds,03n,-14400
Detroit,US,-83.0458,42.3314,22.45,22.92,22.45,22.45,1015,83,1015,993,10000.0,2.11,249,6.46,99,Clouds,overcast clouds,04n,-14400
Seattle,US,-122.3321,47.6062,14.19,13.91,13.15,15.5,1018,86,1018,1009,10000.0,3.13,305,4.47,92,Clouds,overcast clouds,04n,-25200
Denver,US,-104.9847,39.7392,20.43,19.73,18.51,21.56,1017,46,1017,840,10000.0,0.45,55,1.34,11,Clouds,few clouds,02n,-21600
Medellin,CO,-75.5636,6.2518,13.1,11.95,13.1,13.71,1016,57,1016,807,10000.0,1.34,96,0.45,100,Clouds,overcast clouds,04n,-18000
Cali,CO,-76.5225,3.4372,22.78,23.31,22.77,22.78,1013,84,1013,872,10000.0,0.45,308,0.45,100,Clouds,overcast clouds,04n,-18000
Guayaquil,EC,-79.9,-2.1667,24.41,25.26,24.41,24.41,1012,90,1012,1011,10000.0,1.4,212,3.29,100,Clouds,overcast clouds,04n,-18000
Asuncion,PY,-57.6359,-25.3007,7.92,7.92,7.92,7.92,1023,74,1023,1013,10000.0,0.45,147,0.45,0,Clear,clear sky,01n,-10800
Sucre,BO,-65.2627,-19.0333,10.03,9.13,10.03,10.03,1017,78,1017,731,10000.0,1.39,31,1.42,87,Clouds,overcast clouds,04n,-14400
Alexandria,EG,29.9553,31.2156,26.95,29.19,26.95,26.95,1011,75,1011,1011,10000.0,5.82,296,6.9,0,Clear,clear sky,01d,10800
Kinshasa,CD,15.3215,-4.3246,24.55,24.6,24.55,24.55,1015,59,1015,983,10000.0,1.67,212,3.17,6,Clear,clear sky,01d,3600
Luanda,AO,13.2343,-8.8368,18.47,18.57,18.47,18.47,1017,84,1017,1008,10000.0,2.09,127,2.28,1,Clear,clear sky,01d,3600
Maputo,MZ,32.5892,-25.9653,17.35,17.02,17.35,17.35,1026,72,1026,1018,10000.0,1.34,92,4.47,0,Clear,clear sky,01d,7200
Dakar,SN,-17.4441,14.6937,25.7,26.57,25.7,25.7,1014,86,1014,1015,10000.0,6.13,352,6.34,100,Clouds,overcast clouds,04d,0
Perth,AU,115.8333,-31.9333,18.06,17.41,17.14,18.7,1023,57,1023,1021,10000.0,1.34,360,4.02,100,Clouds,overcast clouds,04d,28800
Adelaide,AU,138.6,-34.9333,13.19,12.63,12.09,14.01,1032,79,1032,1017,10000.0,0.89,201,1.79,100,Clouds,overcast clouds,04d,34200
Christchurch,NZ,172.6333,-43.5333,14.39,13.22,14.39,14.39,1001,51,1001,995,10000.0,1.34,360,9.39,100,Rain,light rain,10n,43200
Port Moresby,PG,147.1797,-9.4431,25.19,25.72,25.19,25.19,1012,75,1012,1009,10000.0,8.01,154,9.93,93,Clouds,overcast clouds,04d,36000
Suva,FJ,178.4415,-18.1416,21.65,21.46,21.65,21.65,1015,61,1015,1012,10000.0,4.32,135,4.27,52,Clouds,broken clouds,04n,43200
Kuwait City,KW,47.9783,29.3697,38.77,40.82,38.77,38.77,1001,30,1001,999,10000.0,0.9,291,1.83,0,Clear,clear sky,01d,10800
Manama,BH,50.5832,26.2154,34.5,37.8,34.5,34.5,1001,45,1001,1000,10000.0,2.03,67,2.21,0,Clear,clear sky,01d,10800
Sanaa,YE,44.2067,15.3547,26.85,25.79,26.85,26.85,1013,12,1013,764,10000.0,1.86,25,4.9,77,Clouds,broken clouds,04d,10800
Damascus,SY,36.2913,33.5102,29.13,28.32,27.25,29.51,1008,35,1008,924,10000.0,1.34,184,2.24,0,Clear,clear sky,01d,10800
Beirut,LB,35.4944,33.8889,27.43,29.2,27.43,27.43,1008,66,1008,1002,10000.0,7.46,224,7.28,0,Clear,clear sky,01d,10800
Hyderabad,IN,78.4744,17.3753,24.92,25.56,24.92,24.92,1003,80,1003,941,10000.0,9.87,258,18.19,100,Rain,light rain,10d,19800
Pune,IN,73.8553,18.5196,24.52,25.17,24.52,24.67,1005,82,1005,932,2636.0,5.62,254,13.5,100,Clouds,overcast clouds,04d,19800
Ahmedabad,IN,72.6167,23.0333,32.0,37.07,32.0,32.0,1000,60,1000,995,10000.0,4.0,313,4.74,100,Clouds,overcast clouds,04d,19800
Jaipur,IN,75.8167,26.9167,35.68,38.85,35.68,35.68,998,41,998,952,10000.0,1.24,110,2.04,100,Clouds,overcast clouds,04d,19800
Lucknow,IN,80.9167,26.85,39.46,42.95,39.46,39.46,996,32,996,982,10000.0,3.46,132,3.88,79,Clouds,broken clouds,04d,19800
Macau,MO,113.5461,22.2006,27.8,32.64,27.8,27.8,1008,87,1008,1005,10000.0,9.86,165,13.76,100,Rain,light rain,10d,28800
Bishkek,KG,74.59,42.87,25.04,24.85,25.04,25.04,1009,48,1009,911,10000.0,8.43,261,7.26,100,Clouds,overcast clouds,04d,21600
Tashkent,UZ,69.2163,41.2646,30.61,28.98,30.61,30.61,1007,25,1007,960,10000.0,3.06,225,3.16,6,Clear,clear sky,01d,18000
Ashgabat,TM,58.3833,37.95,33.26,31.06,33.26,33.26,1006,18,1006,962,10000.0,5.06,80,4.65,0,Clear,clear sky,01d,18000
Dushanbe,TJ,68.7797,38.5577,29.87,28.11,29.87,29.87,1009,19,1009,900,10000.0,2.87,180,4.22,1,Clear,clear sky,01d,18000
Astana,KZ,71.446,51.1801,24.16,23.78,24.16,24.16,1004,44,1004,964,10000.0,6.27,260,8.69,98,Clouds,overcast clouds,04d,18000
Yerevan,AM,44.5136,40.1811,26.18,26.18,26.18,26.18,1005,38,1005,887,10000.0,2.27,248,1.69,10,Clear,clear sky,01d,14400
Baku,AZ,49.892,40.3777,26.32,26.32,26.32,26.32,1007,51,1007,1006,10000.0,4.54,187,5.07,100,Clouds,overcast clouds,04d,14400
Tbilisi,GE,44.8337,41.6941,28.99,28.88,28.99,28.99,1007,43,1007,939,10000.0,1.55,319,2.52,5,Clear,clear sky,01d,14400
Minsk,BY,27.5667,53.9,15.1,14.68,15.1,15.1,1010,77,1010,984,10000.0,5.35,258,7.81,100,Clouds,overcast clouds,04d,10800
Kyiv,UA,30.5167,50.4333,19.84,19.99,19.84,21.45,1011,81,1011,996,10000.0,0.45,72,1.79,52,Clouds,broken clouds,04d,10800
Chisinau,MD,28.8575,47.0056,24.96,24.58,24.96,24.96,1015,41,1015,999,10000.0,1.34,135,3.58,7,Clear,clear sky,01d,10800
Vilnius,LT,25.2798,54.6892,14.67,14.59,14.53,15.79,1008,92,1008,990,10000.0,2.24,249,4.02,100,Clouds,overcast clouds,04d,10800
Riga,LV,24.0833,57.0,18.35,18.28,18.35,18.35,1003,78,1003,1003,10000.0,0.45,239,0.45,19,Clouds,few clouds,02d,10800
Tallinn,EE,24.7535,59.437,17.98,18.0,17.98,17.98,1003,83,1003,1000,10000.0,1.56,320,1.36,77,Clouds,broken clouds,04d,10800
Reykjavik,IS,-21.8954,64.1355,8.93,6.64,8.93,8.93,1011,71,1011,998,10000.0,4.11,333,5.04,15,Clouds,few clouds,02d,0
Nuuk,GL,-51.7216,64.1835,4.93,1.51,4.93,4.93,1008,100,1008,1007,10000.0,4.47,30,,100,Rain,light rain,10d,-3600
Thimphu,BT,89.6419,27.4661,22.19,22.08,22.19,22.19,1003,62,1003,700,10000.0,2.83,135,2.57,84,Clouds,broken clouds,04d,21600
Male,MV,73.5089,4.1748,28.14,30.8,28.14,28.14,1013,69,1013,1013,10000.0,8.16,265,8.76,35,Clouds,scattered clouds,03d,18000
