city,country,lon,lat,temp,feels_like,temp_min,temp_max,pressure,humidity,sea_level,grnd_level,visibility,wind_speed,wind_deg,wind_gust,clouds,weather_main,weather_description,weather_icon,timezone
Moscow,RU,37.6156,55.7522,14.08,13.76,14.08,14.08,1017,85,1017,999,10000,1.74,330,2.71,3,Clear,clear sky,01d,10800
Saint Petersburg,RU,30.2642,59.8944,17.81,18.07,17.81,17.81,1013,93,1013,1012,10000,1.31,245,2.5,94,Clouds,overcast clouds,04d,10800
Novosibirsk,RU,82.9344,55.0411,22.5,22.76,22.5,22.5,1004,75,1004,986,10000,5.38,239,7.32,4,Clear,clear sky,01d,25200
Yekaterinburg,RU,60.6125,56.8575,13.0,12.89,13.0,13.0,998,97,998,965,10000,2.18,186,3.36,100,Clouds,overcast clouds,04d,18000
Kazan,RU,49.1221,55.7887,14.74,14.28,14.74,14.74,1005,77,1005,992,10000,7.5,342,16.6,98,Clouds,overcast clouds,04d,10800
Vladimir,RU,40.3966,56.1366,13.97,13.43,13.97,13.97,1016,77,1016,999,10000,2.42,329,5.0,2,Clear,clear sky,01d,10800
Nizhny Novgorod,RU,44.002,56.3287,15.63,15.08,15.63,15.63,1013,70,1013,1002,10000,3.59,342,8.03,0,Clear,clear sky,01d,10800
Samara,RU,50.0,53.0,13.19,13.02,13.19,13.19,1002,94,1002,993,10000,7.24,299,14.97,100,Rain,light rain,10d,14400
Omsk,RU,73.4,55.0,18.52,18.23,18.52,18.52,1005,69,1005,993,10000,4.82,261,7.91,2,Clear,clear sky,01d,21600
Krasnoyarsk,RU,92.7917,56.0097,23.64,23.86,23.64,23.64,1005,69,1005,977,8832,1.96,221,3.42,92,Rain,light rain,10d,25200
Rostov-on-Don,RU,39.7139,47.2364,19.67,19.6,19.67,19.67,1014,73,1014,1009,10000,1.68,341,3.62,100,Clouds,overcast clouds,04d,10800
Ufa,RU,56.0375,54.775,11.2,10.88,11.2,11.2,996,96,996,983,10000,5.12,161,8.61,100,Clouds,overcast clouds,04d,18000
Volgograd,RU,44.5018,48.7194,17.84,17.43,17.84,17.84,1011,67,1011,1004,10000,4.89,328,9.13,8,Clear,clear sky,01d,10800
Perm,RU,56.2855,58.0174,14.97,15.06,14.97,14.97,1000,97,1000,983,10000,4.36,18,12.55,100,Rain,light rain,10d,18000
Voronezh,RU,39.17,51.6664,16.46,16.17,16.46,16.46,1015,77,1015,1000,10000,2.16,349,4.0,18,Clouds,few clouds,02d,10800
Krasnodar,RU,40.0,45.0,17.35,17.46,17.35,17.35,1015,89,1015,1005,10000,3.0,237,5.98,17,Clouds,few clouds,02d,10800
Saratov,RU,46.0333,51.5667,15.41,15.57,15.41,15.41,1009,98,1009,1001,10000,6.03,320,11.21,94,Clouds,overcast clouds,04d,14400
Tyumen,RU,65.5272,57.1522,14.08,14.02,14.08,14.08,999,95,999,990,10000,3.33,217,6.77,100,Clouds,overcast clouds,04d,18000
Tolyatti,RU,49.3461,53.5303,15.11,15.05,15.11,15.11,1003,91,1003,996,10000,10.17,329,15.77,100,Rain,light rain,10d,14400
Izhevsk,RU,53.2333,56.85,16.18,16.05,16.18,16.18,1000,84,1000,984,10000,1.34,27,5.81,100,Rain,moderate rain,10d,14400
London,GB,-0.1257,51.5085,17.73,17.33,16.64,18.38,1023,68,1023,1020,10000,1.43,215,1.6,100,Clouds,overcast clouds,04n,3600
Paris,FR,2.3488,48.8534,17.67,17.11,15.77,18.36,1024,62,1024,1014,10000,0.89,39,2.24,73,Clouds,broken clouds,04n,7200
Berlin,DE,13.4105,52.5244,17.44,17.69,15.53,18.93,1024,94,1024,1019,10000,1.34,355,3.58,60,Clouds,broken clouds,04n,7200
Madrid,ES,-3.7026,40.4165,24.26,24.07,22.9,24.81,1020,51,1020,947,10000,2.24,88,4.47,2,Clear,clear sky,01n,7200
Rome,US,-85.1647,34.257,26.67,29.02,26.09,27.64,1018,80,1018,991,10000,1.23,273,1.25,6,Clear,clear sky,01n,-14400
Amsterdam,NL,4.8897,52.374,14.14,13.52,12.68,15.5,1025,73,1025,1025,10000,0.89,21,1.34,55,Clouds,broken clouds,04n,7200
Brussels,BE,4.3488,50.8504,13.12,12.81,12.1,13.81,1025,89,1025,1018,10000,1.78,83,2.28,72,Clouds,broken clouds,04n,7200
Vienna,AT,16.3721,48.2085,22.42,22.68,20.64,23.31,1020,75,1020,994,10000,4.02,353,11.18,0,Clear,clear sky,01n,7200
Prague,CZ,14.4208,50.088,21.3,21.76,19.93,22.2,1022,87,1022,988,10000,1.79,298,3.13,100,Clouds,overcast clouds,04n,7200
Warsaw,PL,21.0118,52.2298,22.46,22.8,21.47,22.73,1021,78,1021,1010,10000,3.15,25,6.74,100,Clouds,overcast clouds,04d,7200
Budapest,HU,19.0399,47.498,26.1,26.1,26.02,26.55,1018,49,1018,997,10000,2.24,310,4.92,34,Clouds,scattered clouds,03n,7200
Lisbon,PT,-9.1333,38.7167,18.77,18.92,18.64,19.43,1020,85,1020,1012,10000,1.79,343,4.92,0,Clear,clear sky,01n,3600
Stockholm,SE,18.0649,59.3326,16.32,16.07,15.14,16.7,1018,79,1018,1014,10000,0.89,270,3.13,0,Clear,clear sky,01d,7200
Oslo,NO,10.7461,59.9127,12.53,11.67,11.07,12.53,1019,70,1019,995,10000,1.43,333,1.35,10,Clear,clear sky,01d,7200
Copenhagen,DK,12.5655,55.6759,12.86,12.5,12.86,12.86,1025,88,1025,1023,10000,2.73,297,4.6,4,Clear,clear sky,01d,7200
Helsinki,FI,24.9355,60.1695,17.93,18.26,17.65,18.58,1013,95,1013,1011,10000,2.68,270,4.02,70,Clouds,broken clouds,04d,10800
Athens,GR,23.7162,37.9795,27.26,27.41,25.05,27.4,1012,46,1012,988,10000,1.79,336,4.47,0,Clear,clear sky,01n,10800
Dublin,US,-121.9358,37.7021,20.42,20.14,18.51,21.23,1010,62,1010,986,10000,1.78,236,2.74,79,Clouds,broken clouds,04d,-25200
Zurich,CH,8.55,47.3667,19.88,20.53,18.8,20.03,1022,100,1022,964,10000,0.43,65,0.33,87,Clouds,overcast clouds,04n,7200
Barcelona,ES,2.159,41.3888,25.93,26.22,23.99,27.05,1020,63,1020,1012,10000,0.45,280,2.24,0,Clear,clear sky,01n,7200
Beijing,CN,116.3972,39.9075,24.56,24.95,24.56,24.56,1009,72,1009,1004,10000,1.97,102,2.41,100,Clouds,overcast clouds,04d,28800
Shanghai,CN,121.4581,31.2222,25.83,26.92,25.83,25.83,1008,94,1008,1007,10000,2.94,184,10.05,100,Rain,light rain,10d,28800
Shenzhen,CN,114.0683,22.5455,31.77,38.77,30.21,32.4,1009,79,1009,1000,10000,3.5,153,4.85,90,Clouds,overcast clouds,04d,28800
Guangzhou,CN,113.25,23.1167,30.2,34.55,30.2,30.2,1008,66,1008,1007,10000,4.59,148,5.72,77,Clouds,broken clouds,04d,28800
Harbin,CN,126.65,45.75,28.84,29.01,28.84,28.84,1010,46,1010,994,10000,2.68,213,3.59,74,Clouds,broken clouds,04d,28800
Tokyo,JP,139.6917,35.6895,28.62,30.83,26.48,29.33,1012,63,1012,1010,10000,2.85,140,2.59,100,Clouds,overcast clouds,04d,32400
Seoul,KR,126.9778,37.5683,31.35,31.07,31.35,31.35,1011,38,1011,1001,10000,1.06,281,0.96,37,Clouds,scattered clouds,03d,32400
Bangkok,TH,100.5167,13.75,30.51,35.52,28.28,32.18,1008,67,1008,1008,10000,4.51,252,8.18,100,Clouds,overcast clouds,04d,25200
Singapore,SG,103.8501,1.2897,27.74,31.6,27.74,27.74,1011,81,1011,1011,10000,3.42,236,3.59,90,Rain,light rain,10d,28800
Hong Kong,HK,114.1577,22.2855,30.65,37.54,30.27,32.46,1009,73,1009,1004,10000,3.58,60,,84,Clouds,broken clouds,04d,28800
Taipei,TW,121.5319,25.0478,33.28,40.28,33.28,33.28,1009,62,1009,990,10000,0.89,340,3.58,100,Clouds,overcast clouds,04d,28800
Kuala Lumpur,MY,101.6865,3.1431,30.15,37.15,28.62,31.25,1011,79,1011,999,10000,1.65,242,1.6,89,Clouds,overcast clouds,04d,28800
Jakarta,ID,106.8451,-6.2146,30.1,31.36,29.94,31.08,1012,51,1012,1009,10000,1.34,178,1.34,3,Clear,clear sky,01d,25200
Manila,PH,120.9822,14.6042,27.28,31.55,27.28,27.28,1008,90,1008,1011,10000,1.32,224,2.06,100,Clouds,overcast clouds,04d,28800
Hanoi,VN,105.8412,21.0245,32.52,38.99,32.52,32.52,1004,62,1004,1003,4938,2.26,137,2.95,99,Rain,light rain,10d,25200
New York,US,-74.006,40.7143,25.2,25.39,23.31,26.28,1020,62,1020,1018,10000,1.79,211,4.47,89,Clouds,overcast clouds,04n,-14400
Los Angeles,US,-118.2437,34.0522,20.01,19.97,18.1,21.29,1011,73,1011,992,10000,3.45,199,2.81,0,Clear,clear sky,01d,-25200
Chicago,US,-87.65,41.85,30.07,37.07,28.63,30.66,1013,82,1013,992,10000,4.31,204,10.63,86,Clouds,overcast clouds,04n,-18000
Houston,US,-95.3633,29.7633,29.02,34.58,27.84,29.52,1016,79,1016,1014,10000,3.58,134,6.71,4,Clear,clear sky,01n,-18000
Phoenix,US,-112.074,33.4484,35.08,32.53,34.12,36.12,1005,13,1005,963,10000,1.34,270,4.47,0,Clear,clear sky,01n,-25200
Toronto,CA,-79.4163,43.7001,22.71,22.58,22.19,23.56,1018,59,1018,1002,10000,1.34,131,3.13,51,Clouds,broken clouds,04n,-14400
Vancouver,CA,-123.1193,49.2497,17.6,17.35,16.53,18.88,1015,74,1015,1007,10000,4.02,180,8.49,53,Clouds,broken clouds,04d,-25200
Montreal,CA,-73.5878,45.5088,21.49,21.29,20.48,21.9,1018,61,1018,1015,10000,1.86,179,1.88,5,Clear,clear sky,01n,-14400
Calgary,CA,-114.0853,51.0501,17.75,17.54,16.54,17.75,1007,75,1007,884,10000,4.16,332,9.49,1,Clear,clear sky,01d,-21600
Ottawa,CA,-75.6981,45.4112,20.07,19.8,20.07,20.07,1018,64,1018,1007,10000,1.43,228,1.59,91,Clouds,overcast clouds,04n,-14400
Sao Paulo,BR,-46.6361,-23.5475,17.71,17.99,17.47,20.25,1022,94,1022,930,10000,1.74,71,3.36,100,Clouds,overcast clouds,04n,-10800
Rio de Janeiro,BR,-43.2075,-22.9028,24.15,24.94,24.15,24.15,1021,89,1021,1022,10000,1.55,288,1.86,59,Clouds,broken clouds,04n,-10800
Buenos Aires,AR,-58.3772,-34.6132,8.71,7.1,6.63,8.86,1022,68,1022,1021,10000,2.79,158,3.64,0,Clear,clear sky,01n,-10800
Lima,PE,-77.0282,-12.0432,21.06,21.34,21.06,21.06,1012,81,1012,986,10000,3.14,152,3.25,16,Clouds,few clouds,02n,-18000
Bogota,CO,-74.0817,4.6097,12.83,12.1,12.31,13.04,1020,74,1020,739,10000,1.57,116,1.89,78,Clouds,broken clouds,04n,-18000
Santiago,CL,-70.6483,-33.4569,12.45,10.8,10.41,12.45,1015,40,1015,929,10000,0.63,149,0.58,0,Clear,clear sky,01n,-14400
Caracas,VE,-66.8792,10.488,27.55,32.35,27.55,27.55,1016,90,1016,898,10000,1.28,181,0.7,1,Rain,light rain,10n,-14400
Quito,EC,-78.5249,-0.2299,10.31,9.33,10.31,10.31,1018,74,1018,724,10000,2.2,129,2.93,100,Clouds,overcast clouds,04n,-18000
Montevideo,UY,-56.1674,-34.8335,8.96,8.18,8.96,8.96,1022,73,1022,1019,10000,1.78,163,2.06,0,Clear,clear sky,01n,-10800
La Paz,BO,-68.15,-16.5,3.71,1.41,3.71,3.71,1021,86,1021,621,10000,2.46,123,3.07,0,Clear,clear sky,01n,-14400
Cairo,EG,31.2497,30.0626,24.12,24.39,24.12,24.12,1011,69,1011,1005,10000,3.82,11,5.11,0,Clear,clear sky,01n,10800
Lagos,NG,3.75,6.5833,23.55,24.47,23.55,23.55,1013,96,1013,1013,5546,2.01,230,5.47,100,Clouds,overcast clouds,04n,3600
Nairobi,KE,36.8167,-1.2833,14.99,14.89,14.99,14.99,1019,90,1019,838,10000,1.32,103,2.11,99,Clouds,overcast clouds,04n,10800
Johannesburg,ZA,28.0436,-26.2023,7.63,7.63,7.63,7.63,1021,56,1021,830,10000,0.53,85,0.59,0,Clear,clear sky,01n,7200
Cape Town,ZA,18.4232,-33.9258,8.95,8.01,7.83,9.21,1022,76,1022,1021,10000,1.95,114,1.96,0,Clear,clear sky,01n,7200
Casablanca,MA,-7.6192,33.5928,21.85,22.39,21.85,21.85,1018,88,1018,1009,10000,1.52,23,2.44,0,Clear,clear sky,01n,3600
Addis Ababa,ET,38.7469,9.025,13.9,13.2,13.9,13.9,1017,71,1017,770,10000,0.24,215,0.68,62,Clouds,broken clouds,04n,10800
Dar es Salaam,TZ,39.2695,-6.8235,20.85,21.26,20.85,20.85,1017,87,1017,1015,10000,2.14,213,3.42,8,Clear,clear sky,01n,10800
Accra,GH,-0.1969,5.556,24.61,25.29,24.61,24.61,1013,83,1013,1010,10000,5.24,223,7.17,100,Clouds,overcast clouds,04n,0
Tunis,TN,9.0,34.0,29.78,29.78,29.78,29.78,1015,43,1015,1004,10000,4.34,81,6.34,20,Clouds,few clouds,02n,3600
Sydney,AU,151.2073,-33.8679,16.37,15.86,15.68,17.41,1019,69,1019,1014,10000,0.89,351,3.58,97,Clouds,overcast clouds,04d,36000
Melbourne,US,-80.6081,28.0836,25.08,25.63,23.92,25.59,1017,76,1017,1018,10000,2.58,285,2.73,36,Clouds,scattered clouds,03n,-14400
Brisbane,AU,153.0281,-27.4679,19.81,19.88,18.98,20.51,1022,78,1022,1017,10000,1.34,18,1.34,89,Clouds,overcast clouds,04d,36000
Auckland,NZ,174.7667,-36.8667,14.53,13.84,13.24,15.44,1031,69,1031,1027,10000,1.79,50,3.13,4,Clear,clear sky,01d,43200
Wellington,NZ,174.7756,-41.2866,11.07,10.03,9.75,12.73,1033,69,1033,1021,10000,1.79,151,2.68,0,Clear,clear sky,01d,43200
Dubai,AE,55.3047,25.2582,31.28,37.73,31.28,31.28,999,68,999,998,10000,4.33,208,4.89,13,Clouds,few clouds,02d,14400
Doha,QA,51.5333,25.2867,33.67,33.19,33.67,33.67,999,32,999,998,10000,7.95,313,13.93,2,Clear,clear sky,01d,10800
Riyadh,SA,46.7219,24.6877,30.08,28.2,30.08,30.08,1006,14,1006,936,10000,1.53,356,1.5,0,Clear,clear sky,01d,10800
Abu Dhabi,AE,54.3667,24.4667,32.22,39.22,32.22,32.22,999,71,999,999,10000,3.86,266,5.3,2,Clear,clear sky,01d,14400
Muscat,OM,58.5922,23.6139,31.63,36.8,31.63,31.63,1000,62,1000,990,10000,1.22,5,0.84,90,Clouds,overcast clouds,04d,14400
Istanbul,TR,28.9833,41.0351,22.97,23.93,22.31,23.28,1015,100,1015,1007,10000,3.25,43,7.49,0,Clear,clear sky,01d,10800
Ankara,TR,32.8543,39.9199,20.67,20.23,16.25,20.67,1019,55,1019,896,10000,1.82,62,1.76,0,Clear,clear sky,01d,10800
Tehran,IR,51.4215,35.6944,27.65,26.94,27.65,27.65,1008,32,1008,860,10000,1.05,202,0.74,0,Clear,clear sky,01d,12600
Baghdad,IQ,44.4009,33.3406,31.92,29.9,31.92,31.92,1001,20,1001,997,10000,6.09,314,11.52,0,Clear,clear sky,01d,10800
Amman,JO,35.945,31.9552,20.18,19.79,20.18,20.18,1011,59,1011,921,10000,2.68,283,2.72,0,Clear,clear sky,01d,10800
Mumbai,IN,72.8479,19.0144,27.2,31.08,27.2,27.2,1008,88,1008,1007,6459,4.97,232,6.25,100,Rain,light rain,10d,19800
Delhi,IN,77.2167,28.6667,36.52,39.12,36.52,36.52,1000,37,1000,975,10000,5.68,276,8.31,96,Clouds,overcast clouds,04d,19800
Bangalore,IN,77.6033,12.9762,23.56,24.01,22.28,23.61,1012,78,1012,914,10000,7.85,268,12.03,100,Clouds,overcast clouds,04d,19800
Chennai,IN,80.2785,13.0878,33.0,39.16,31.72,33.31,1007,59,1007,1006,10000,0.45,71,1.34,100,Clouds,overcast clouds,04d,19800
Kolkata,IN,88.3697,22.5697,31.97,36.42,31.97,31.97,1003,58,1003,1002,10000,1.35,123,1.07,99,Clouds,overcast clouds,04d,19800
Islamabad,PK,73.1338,33.7104,37.18,36.94,37.18,37.18,1000,26,1000,921,10000,3.95,122,4.13,0,Clear,clear sky,01d,18000
Lahore,PK,74.3436,31.5497,39.54,39.65,39.54,39.54,998,23,998,974,10000,3.49,230,4.38,47,Clouds,scattered clouds,03d,18000
Dhaka,BD,90.4074,23.7104,30.11,35.81,30.11,30.11,1003,72,1003,1002,10000,3.65,143,4.44,100,Clouds,overcast clouds,04d,21600
Colombo,LK,79.8478,6.9319,30.02,36.35,30.02,30.02,1012,75,1012,1011,10000,7.01,252,11.32,27,Clouds,scattered clouds,03d,19800
Kathmandu,NP,85.3167,27.7167,25.0,25.44,25.0,25.0,1006,72,1006,847,10000,0.64,214,0.95,64,Clouds,broken clouds,04d,20700
Murmansk,RU,34.0,68.0,14.72,14.18,14.72,14.72,1011,74,1011,979,10000,2.19,158,3.6,54,Clouds,broken clouds,04n,10800
Arkhangelsk,RU,40.5433,64.5401,14.41,13.39,14.41,14.41,1015,57,1015,1014,10000,2.24,149,6.58,100,Clouds,overcast clouds,04d,10800
Sochi,RU,39.7303,43.6,20.65,20.94,20.65,20.65,1016,83,1016,1000,10000,2.07,75,1.91,0,Clear,clear sky,01d,10800
Vladivostok,RU,131.8735,43.1056,17.02,17.05,17.02,17.02,1011,87,1011,1010,10000,3.12,173,3.42,63,Clouds,broken clouds,04d,36000
Irkutsk,RU,104.2964,52.2978,28.74,28.7,28.74,28.74,1006,44,1006,959,10000,0.38,207,1.11,92,Clouds,overcast clouds,04d,28800
Yakutsk,RU,129.7331,62.0339,30.67,29.17,30.67,30.67,1007,27,1007,997,10000,1.28,154,3.21,50,Clouds,scattered clouds,03d,32400
Petropavlovsk-Kamchatsky,RU,158.6483,53.0452,10.28,9.45,10.28,10.28,1007,80,1007,990,10000,1.03,89,2.97,100,Clouds,overcast clouds,04d,43200
Kaliningrad,RU,20.511,54.7065,19.47,19.54,19.47,19.47,1021,79,1021,1018,10000,3.78,306,7.44,100,Clouds,overcast clouds,04d,7200
Smolensk,RU,33.0,55.0,16.2,16.33,16.2,16.2,1018,94,1018,994,10000,1.63,100,2.8,65,Clouds,broken clouds,04d,10800
Tver,RU,35.8931,56.8619,17.13,17.09,17.13,17.13,1018,84,1018,1000,10000,1.35,271,1.88,62,Clouds,broken clouds,04d,10800
Munich,DE,11.5755,48.1374,17.89,18.22,16.44,18.58,1022,95,1022,959,10000,0.82,105,0.84,100,Clouds,overcast clouds,04d,7200
Hamburg,DE,10.0,53.55,14.81,14.59,12.94,14.92,1025,86,1025,1023,10000,1.34,40,0.0,0,Clear,clear sky,01d,7200
Milan,IT,9.1895,45.4643,23.6,23.9,22.93,24.45,1018,72,1018,1003,10000,0.62,291,1.01,57,Clouds,broken clouds,04n,7200
Naples,IT,14.25,40.8333,25.41,25.44,25.06,26.53,1016,55,1016,1013,10000,1.31,170,2.06,0,Clear,clear sky,01d,7200
Valencia,ES,-0.8333,39.3333,22.08,22.07,22.08,22.08,1020,66,1020,962,10000,0.95,271,0.89,58,Clouds,broken clouds,04n,7200
Seville,ES,-5.9761,37.3824,24.29,24.5,22.82,25.0,1018,66,1018,1014,10000,0.89,294,2.68,1,Clear,clear sky,01n,7200
Porto,PT,-8.611,41.1496,20.75,21.05,20.75,20.75,1021,83,1021,1012,10000,2.57,357,2.76,0,Clear,clear sky,01n,3600
Lyon,FR,4.5833,45.75,16.58,16.59,16.38,19.72,1021,88,1021,961,10000,1.52,263,1.0,0,Clear,clear sky,01n,7200
Marseille,FR,5.5,43.3333,23.65,23.32,21.48,25.2,1017,48,1017,998,10000,1.48,26,2.16,94,Clouds,overcast clouds,04n,7200
Geneva,US,-88.3054,41.8875,27.79,31.58,26.82,28.9,1013,80,1013,985,10000,5.19,187,13.71,63,Clouds,broken clouds,04n,-18000
Osaka,JP,135.5022,34.6937,29.37,31.85,29.35,29.64,1011,61,1011,1007,10000,4.45,231,3.57,100,Clouds,overcast clouds,04d,32400
Nagoya,JP,136.9064,35.1815,29.42,32.86,28.9,29.42,1011,66,1011,1012,10000,0.45,189,1.34,100,Clouds,overcast clouds,04d,32400
Busan,KR,129.0403,35.1028,24.33,24.57,24.33,24.33,1013,67,1013,1008,10000,4.37,98,4.79,92,Clouds,overcast clouds,04d,32400
Incheon,KR,126.4161,37.45,20.7,21.07,20.7,20.7,1012,86,1012,1012,10000,3.7,266,4.07,71,Clouds,broken clouds,04d,32400
Chiang Mai,TH,99.0,18.75,28.0,32.57,28.0,28.74,1007,83,1007,963,10000,0.21,233,0.47,100,Clouds,overcast clouds,04d,25200
Phuket,TH,98.25,8.0,30.61,37.43,30.61,30.61,1011,73,1011,1008,10000,4.63,264,7.31,100,Clouds,overcast clouds,04d,25200
Siem Reap,KH,104.0,13.5,32.34,35.79,32.34,32.34,1008,53,1008,1000,10000,4.5,266,6.97,100,Clouds,overcast clouds,04d,25200
Vientiane,LA,102.6,17.9667,29.23,36.23,29.23,29.23,1007,94,1007,985,10000,1.71,231,3.17,100,Rain,light rain,10d,25200
Yangon,MM,96.1561,16.8053,29.45,32.92,29.45,29.45,1008,66,1008,1007,10000,4.84,229,6.88,100,Clouds,overcast clouds,04d,23400
Ulaanbaatar,MN,106.8832,47.9077,25.55,25.13,25.55,25.55,1008,37,1008,847,10000,3.01,276,3.89,73,Clouds,broken clouds,04d,28800
San Francisco,US,-122.4194,37.7749,14.79,14.26,13.34,17.54,1011,74,1011,1007,10000,5.81,360,8.94,78,Clouds,broken clouds,04n,-25200
San Diego,US,-117.1573,32.7153,18.6,18.5,17.7,19.56,1012,76,1012,1008,10000,2.24,166,4.92,42,Clouds,scattered clouds,03n,-25200
Dallas,US,-96.7836,32.7668,30.89,34.86,30.08,31.93,1014,61,1014,995,10000,2.24,175,3.58,0,Clear,clear sky,01n,-18000
Miami,US,-80.1937,25.7743,28.21,32.63,27.22,28.9,1018,80,1018,1017,10000,0.89,153,1.79,1,Clear,clear sky,01n,-14400
Boston,US,-71.0598,42.3584,18.45,18.39,16.4,19.7,1020,78,1020,1016,10000,2.03,196,4.84,3,Clear,clear sky,01n,-14400
Philadelphia,US,-75.1638,39.9523,23.14,23.55,21.66,23.88,1020,78,1020,1016,10000,2.68,169,5.36,61,Clouds,broken clouds,04n,-14400
Atlanta,US,-84.388,33.749,27.02,29.6,25.92,28.41,1018,78,1018,985,10000,0.49,198,0.81,38,Clouds,scattered clouds,03n,-14400
Detroit,US,-83.0458,42.3314,26.39,26.39,25.03,26.67,1015,80,1015,994,10000,2.27,175,8.51,61,Clouds,broken clouds,04n,-14400
Seattle,US,-122.3321,47.6062,16.24,15.9,14.92,17.25,1016,76,1016,1006,10000,2.24,208,4.02,97,Clouds,overcast clouds,04d,-25200
Denver,US,-104.9847,39.7392,23.1,22.25,20.92,24.54,1008,30,1008,833,10000,3.16,359,5.51,0,Clear,clear sky,01n,-21600
Medellin,CO,-75.5636,6.2518,15.02,14.38,14.82,15.93,1015,69,1015,807,10000,1.79,79,1.79,100,Clouds,overcast clouds,04n,-18000
Cali,CO,-76.5225,3.4372,19.43,19.65,19.43,19.43,1012,85,1012,871,10000,1.26,300,1.13,100,Clouds,overcast clouds,04n,-18000
Guayaquil,EC,-79.9,-2.1667,25.53,26.36,25.53,25.53,1010,85,1010,1009,10000,2.54,218,5.23,54,Clouds,broken clouds,04n,-18000
Asuncion,PY,-57.6359,-25.3007,14.58,14.13,14.58,14.58,1018,78,1018,1008,10000,2.24,219,3.13,98,Clouds,overcast clouds,04n,-10800
Sucre,BO,-65.2627,-19.0333,9.66,8.25,9.66,9.66,1016,80,1016,729,10000,2.76,356,3.2,0,Clear,clear sky,01n,-14400
Alexandria,EG,29.9553,31.2156,25.29,25.75,25.29,25.29,1011,72,1011,1011,10000,3.74,334,5.4,0,Clear,clear sky,01d,10800
Kinshasa,CD,15.3215,-4.3246,21.5,21.66,21.5,21.5,1013,75,1013,981,10000,1.4,241,2.13,3,Clear,clear sky,01n,3600
Luanda,AO,13.2343,-8.8368,17.86,18.08,17.86,17.86,1015,91,1015,1006,10000,3.54,174,4.53,1,Clear,clear sky,01n,3600
Maputo,MZ,32.5892,-25.9653,19.01,19.32,19.01,19.01,1022,90,1022,1014,10000,3.13,36,5.81,30,Clouds,scattered clouds,03n,7200
Dakar,SN,-17.4441,14.6937,24.58,25.23,24.58,24.58,1012,82,1012,1012,10000,1.79,51,4.92,27,Clouds,scattered clouds,03n,0
Perth,AU,115.8333,-31.9333,13.41,12.79,12.69,13.91,1010,76,1010,1007,10000,2.24,360,8.94,92,Clouds,overcast clouds,04d,28800
Adelaide,AU,138.6,-34.9333,14.33,13.99,13.94,15.87,1010,83,1010,995,10000,3.13,293,5.81,86,Clouds,overcast clouds,04d,34200
Christchurch,NZ,172.6333,-43.5333,11.06,9.92,9.41,11.06,1032,65,1032,1026,10000,3.58,24,5.81,4,Clear,clear sky,01d,43200
Port Moresby,PG,147.1797,-9.4431,28.15,30.29,28.15,28.15,1008,65,1008,1005,10000,7.09,174,6.16,4,Clear,clear sky,01d,36000
Suva,FJ,178.4415,-18.1416,22.06,21.94,22.06,22.06,1013,62,1013,1010,10000,4.54,151,6.29,7,Clear,clear sky,01d,43200
Kuwait City,KW,47.9783,29.3697,37.1,36.34,37.1,37.1,1001,24,1001,999,10000,6.49,314,10.08,0,Clear,clear sky,01d,10800
Manama,BH,50.5832,26.2154,33.89,39.91,33.89,33.89,1000,55,1000,1000,10000,10.45,339,17.68,5,Clear,clear sky,01d,10800
Sanaa,YE,44.2067,15.3547,21.35,20.06,21.35,21.35,1014,20,1014,763,10000,0.61,79,1.41,46,Clouds,scattered clouds,03d,10800
Damascus,SY,36.2913,33.5102,25.63,25.53,25.63,25.63,1012,49,1012,926,10000,0.95,163,0.89,0,Clear,clear sky,01d,10800
Beirut,LB,35.4944,33.8889,26.32,26.32,26.32,26.32,1009,59,1009,1003,10000,3.49,207,3.02,0,Clear,clear sky,01d,10800
Hyderabad,IN,78.4744,17.3753,25.14,25.75,25.14,25.14,1008,78,1008,945,10000,7.13,288,11.88,100,Clouds,overcast clouds,04d,19800
Pune,IN,73.8553,18.5196,26.89,27.68,25.32,26.89,1010,56,1010,937,10000,5.45,250,10.28,100,Clouds,overcast clouds,04d,19800
Ahmedabad,IN,72.6167,23.0333,32.75,36.35,32.75,32.75,1005,52,1005,999,10000,4.66,268,5.54,75,Clouds,broken clouds,04d,19800
Jaipur,IN,75.8167,26.9167,33.86,35.71,33.86,33.86,1002,42,1002,955,10000,8.44,279,9.27,22,Clouds,few clouds,02d,19800
Lucknow,IN,80.9167,26.85,35.4,38.63,35.4,35.4,1000,42,1000,986,10000,2.82,207,2.77,61,Clouds,broken clouds,04d,19800
Macau,MO,113.5461,22.2006,29.05,33.03,29.05,29.05,1008,71,1008,1006,10000,4.89,158,5.52,99,Clouds,overcast clouds,04d,28800
Bishkek,KG,74.59,42.87,25.27,25.37,25.27,25.27,1010,58,1010,912,10000,3.87,315,3.14,61,Clouds,broken clouds,04d,21600
Tashkent,UZ,69.2163,41.2646,28.28,28.49,28.28,28.28,1009,47,1009,961,10000,2.76,222,2.62,73,Clouds,broken clouds,04d,18000
Ashgabat,TM,58.3833,37.95,26.54,26.54,26.54,26.54,1014,36,1014,969,10000,5.05,317,4.94,0,Clear,clear sky,01d,18000
Dushanbe,TJ,68.7797,38.5577,30.49,29.58,30.49,30.49,1008,34,1008,899,10000,1.86,216,2.34,0,Clear,clear sky,01d,18000
Astana,KZ,71.446,51.1801,23.54,22.81,23.54,23.54,1006,33,1006,965,10000,6.72,180,8.8,91,Clouds,overcast clouds,04d,18000
Yerevan,AM,44.5136,40.1811,18.77,17.93,18.77,18.77,1013,47,1013,892,10000,0.68,20,1.99,0,Clear,clear sky,01d,14400
Baku,AZ,49.892,40.3777,23.48,23.29,23.48,23.48,1014,54,1014,1013,10000,4.43,218,4.8,0,Clear,clear sky,01d,14400
Tbilisi,GE,44.8337,41.6941,19.18,18.88,19.18,19.18,1016,66,1016,947,10000,2.8,321,4.59,77,Clouds,broken clouds,04d,14400
Minsk,BY,27.5667,53.9,20.8,21.1,20.8,20.8,1018,83,1018,992,10000,3.05,337,6.12,44,Clouds,scattered clouds,03d,10800
Kyiv,UA,30.5167,50.4333,21.51,22.17,20.9,21.51,1015,94,1015,1000,10000,0.45,59,0.45,8,Clear,clear sky,01d,10800
Chisinau,MD,28.8575,47.0056,26.07,26.07,26.07,26.07,1017,74,1017,1001,10000,0.45,0,0.89,96,Clouds,overcast clouds,04d,10800
Vilnius,LT,25.2798,54.6892,22.86,23.37,22.45,22.86,1018,83,1018,1001,10000,0.89,33,1.34,93,Clouds,overcast clouds,04d,10800
Riga,LV,24.0833,57.0,21.69,21.9,21.69,21.69,1016,76,1016,1018,10000,3.92,302,7.69,100,Clouds,overcast clouds,04d,10800
Tallinn,EE,24.7535,59.437,18.3,18.74,18.3,18.3,1015,98,1015,1013,10000,5.43,260,9.83,46,Clouds,scattered clouds,03d,10800
Reykjavik,IS,-21.8954,64.1355,8.63,5.9,8.63,8.63,1009,70,1009,996,10000,4.95,217,7.04,82,Clouds,broken clouds,04d,0
Nuuk,GL,-51.7216,64.1835,2.71,0.44,2.71,2.71,1003,93,1003,1002,10000,2.24,20,,66,Clouds,broken clouds,04n,-3600
Thimphu,BT,89.6419,27.4661,18.17,18.05,18.17,18.17,1009,77,1009,702,8553,1.36,125,1.49,96,Clouds,overcast clouds,04d,21600
Male,MV,73.5089,4.1748,28.05,32.07,28.05,28.05,1013,79,1013,1013,10000,6.38,262,7.46,90,Clouds,overcast clouds,04d,18000
